City_ID,city,lat,lng,max_Temp,humidity,cloudiness,wind_Speed,country,date
0,puerto ayora,-0.7393,-90.3518,75.54,100,97,7.0,EC,2023-04-17 03:57:12
1,tarrafal,15.2833,-23.7667,74.19,87,76,15.32,CV,2023-04-17 03:57:13
2,sobolevo,54.4299,31.8996,41.95,93,100,4.88,RU,2023-04-17 03:57:13
3,dikson,73.5069,80.5464,5.99,99,100,11.07,RU,2023-04-17 03:57:13
4,spas-klepiki,55.1347,40.1767,42.46,48,100,3.65,RU,2023-04-17 03:57:14
5,namibe,-15.1961,12.1522,75.29,80,20,2.93,AO,2023-04-17 03:54:19
6,tucuma,-0.1833,-50.05,75.29,92,98,3.89,BR,2023-04-17 03:57:14
7,dwarka,22.2394,68.9678,82.67,68,0,8.77,IN,2023-04-17 03:57:15
8,port alfred,-33.5906,26.891,63.97,51,5,5.1,ZA,2023-04-17 03:57:15
9,umba,66.6871,34.3429,27.12,94,100,3.94,RU,2023-04-17 03:57:15
10,new norfolk,-42.7826,147.0587,67.5,62,90,5.99,AU,2023-04-17 03:57:16
11,manokwari,-0.8667,134.0833,83.41,78,95,9.75,ID,2023-04-17 03:57:17
12,alappuzha,9.49,76.3264,91.0,72,1,3.76,IN,2023-04-17 03:55:35
13,jamestown,42.097,-79.2353,48.52,97,100,14.97,US,2023-04-17 03:57:17
14,hithadhoo,-0.6,73.0833,83.88,66,28,2.19,MV,2023-04-17 03:57:18
15,ilulissat,69.2167,-51.1,0.09,98,37,4.76,GL,2023-04-17 03:47:21
16,jaslo,49.7451,21.4725,49.19,89,100,7.45,PL,2023-04-17 03:57:18
17,qaanaaq,77.484,-69.3632,-0.72,73,0,7.05,GL,2023-04-17 03:57:18
18,rikitea,-23.1203,-134.9692,79.59,82,46,10.22,PF,2023-04-17 03:57:19
19,ponta delgada,37.7333,-25.6667,61.52,77,75,10.36,PT,2023-04-17 03:57:19
20,buraydah,26.326,43.975,64.85,72,0,4.7,SA,2023-04-17 03:57:19
21,mataura,-46.1927,168.8643,65.53,61,98,1.41,NZ,2023-04-17 03:57:20
22,tyrma,50.0833,132.1667,52.48,25,5,2.24,RU,2023-04-17 03:57:20
23,leningradskiy,69.3833,178.4167,10.74,90,8,6.2,RU,2023-04-17 03:57:20
24,saint george,37.1041,-113.5841,70.39,22,0,4.0,US,2023-04-17 03:53:59
25,uchiza,-8.4592,-76.4633,71.98,97,100,1.7,PE,2023-04-17 03:57:21
26,severo-kurilsk,50.6789,156.125,35.47,98,100,16.42,RU,2023-04-17 03:57:21
27,ushuaia,-54.8,-68.3,37.06,70,75,6.91,AR,2023-04-17 03:54:21
28,avarua,-21.2078,-159.775,75.25,57,89,4.61,CK,2023-04-17 03:57:22
29,saint-philippe,-21.3585,55.7679,78.39,81,50,9.42,RE,2023-04-17 03:57:22
30,busselton,-33.65,115.3333,70.61,55,90,14.65,AU,2023-04-17 03:57:23
31,mar del plata,-38.0023,-57.5575,49.95,82,0,4.61,AR,2023-04-17 03:57:23
32,porbandar,21.6422,69.6093,83.8,61,0,6.6,IN,2023-04-17 03:57:23
33,harmanli,41.9333,25.9,50.92,87,100,3.04,BG,2023-04-17 03:57:24
34,provideniya,64.3833,-173.3,19.51,68,75,8.99,RU,2023-04-17 03:57:24
35,hobart,-42.8794,147.3294,67.86,56,40,9.22,AU,2023-04-17 03:57:15
36,yellowknife,62.456,-114.3525,39.72,56,20,16.11,CA,2023-04-17 03:57:24
37,barrow,71.2906,-156.7887,-0.38,71,0,9.22,US,2023-04-17 03:57:25
38,paarl,-33.7338,18.9752,59.02,30,2,4.14,ZA,2023-04-17 03:57:25
39,port elizabeth,-33.918,25.5701,52.09,93,0,2.3,ZA,2023-04-17 03:57:25
40,talakan,50.3167,130.3667,53.53,28,9,2.95,RU,2023-04-17 03:57:26
41,trofors,65.5333,13.4063,28.27,99,100,1.19,NO,2023-04-17 03:57:26
42,kapaa,22.0752,-159.319,80.58,79,0,6.91,US,2023-04-17 03:57:26
43,narasannapeta,18.4167,84.05,94.32,44,18,9.62,IN,2023-04-17 03:57:26
44,pelym,61.0108,61.9978,23.45,51,68,1.59,RU,2023-04-17 03:57:27
45,semporna,4.4818,118.6112,84.96,68,79,3.67,MY,2023-04-17 03:57:27
46,albany,42.6001,-73.9662,64.81,76,44,4.0,US,2023-04-17 03:53:48
47,korla,41.7597,86.1469,68.31,25,55,15.28,CN,2023-04-17 03:57:28
48,hofn,64.2539,-15.2082,46.67,99,100,17.2,IS,2023-04-17 03:57:28
49,bredasdorp,-34.5322,20.0403,55.69,81,8,4.07,ZA,2023-04-17 03:57:28
50,samarai,-10.6167,150.6667,83.3,66,100,4.72,PG,2023-04-17 03:57:28
51,punta arenas,-53.15,-70.9167,39.31,65,75,14.97,CL,2023-04-17 03:57:29
52,kiunga,-6.1219,141.2906,94.82,46,15,2.66,PG,2023-04-17 03:57:29
53,kodiak,57.79,-152.4072,35.11,75,100,12.66,US,2023-04-17 03:57:29
54,ulladulla,-35.35,150.4667,70.77,56,59,6.44,AU,2023-04-17 03:57:29
55,bluff,-46.6,168.3333,63.36,66,99,3.96,NZ,2023-04-17 03:57:29
56,tasiilaq,65.6145,-37.6368,33.67,93,100,29.12,GL,2023-04-17 03:57:30
57,opuwo,-18.0607,13.84,70.41,36,79,4.0,NA,2023-04-17 03:57:30
58,guerrero negro,27.9769,-114.0611,57.29,85,4,17.07,MX,2023-04-17 03:57:31
59,vila velha,-20.3297,-40.2925,72.95,89,20,2.3,BR,2023-04-17 03:53:02
60,hami,42.8,93.45,68.47,29,5,13.31,CN,2023-04-17 03:57:31
61,beringovskiy,63.05,179.3167,20.08,89,88,4.36,RU,2023-04-17 03:57:32
62,sao joao da barra,-21.6403,-41.0511,73.24,86,0,3.33,BR,2023-04-17 03:57:32
63,bongaree,-27.0797,153.1586,82.15,69,53,22.59,AU,2023-04-17 03:57:32
64,vaini,-21.2,-175.2,78.96,83,75,17.27,TO,2023-04-17 03:57:32
65,zhenlai,45.8495,123.2973,61.5,17,100,15.93,CN,2023-04-17 03:57:33
66,sola,-13.8833,167.55,84.87,74,75,6.91,VU,2023-04-17 03:57:33
67,kandrian,-6.2167,149.55,86.02,63,68,6.49,PG,2023-04-17 03:57:33
68,hobyo,5.3505,48.5268,82.78,74,23,8.46,SO,2023-04-17 03:57:34
69,coahuayana,18.7333,-103.6833,73.0,91,0,1.74,MX,2023-04-17 03:57:34
70,deputatskiy,69.3,139.9,15.31,86,90,2.73,RU,2023-04-17 03:57:34
71,noumea,-22.2763,166.4572,82.0,99,99,6.33,NC,2023-04-17 03:57:35
72,norman wells,65.282,-126.8329,24.84,74,75,5.75,CA,2023-04-17 03:57:35
73,pevek,69.7008,170.3133,10.49,83,47,2.48,RU,2023-04-17 03:57:35
74,mollendo,-17.0231,-72.0147,68.61,88,66,8.25,PE,2023-04-17 03:57:36
75,cape town,-33.9258,18.4232,62.38,84,4,8.01,ZA,2023-04-17 03:55:01
76,luderitz,-26.6481,15.1594,67.6,43,11,1.92,NA,2023-04-17 03:57:36
77,codrington,-38.2667,141.9667,66.76,64,75,12.33,AU,2023-04-17 03:57:36
78,lakselv,70.0513,24.9718,33.62,93,100,6.91,NO,2023-04-17 03:57:36
79,niono,14.2526,-5.993,80.65,8,0,9.4,ML,2023-04-17 03:57:37
80,bathsheba,13.2167,-59.5167,79.41,73,20,18.41,BB,2023-04-17 03:57:37
81,hit,33.6416,42.8251,69.73,36,9,5.03,IQ,2023-04-17 03:57:38
82,hermanus,-34.4187,19.2345,61.66,64,8,4.9,ZA,2023-04-17 03:57:38
83,hilo,19.7297,-155.09,76.73,81,40,11.5,US,2023-04-17 03:57:38
84,obidos,-1.9175,-55.5181,75.78,92,100,1.97,BR,2023-04-17 03:57:38
85,mitsamiouli,-11.3847,43.2844,81.34,75,9,3.87,KM,2023-04-17 03:57:39
86,castro,-24.7911,-50.0119,60.58,97,76,4.38,BR,2023-04-17 03:57:39
87,tongliao,43.6125,122.2653,62.89,20,100,23.67,CN,2023-04-17 03:57:39
88,atuona,-9.8,-139.0333,81.63,75,73,19.77,PF,2023-04-17 03:57:39
89,bethel,41.3712,-73.414,59.85,89,100,6.91,US,2023-04-17 03:57:39
90,traverse city,44.7631,-85.6206,42.91,86,100,14.97,US,2023-04-17 03:57:40
91,primorsk,46.7348,36.3443,44.76,56,52,28.32,UA,2023-04-17 03:57:40
92,waddan,29.1614,16.139,56.35,74,0,7.38,LY,2023-04-17 03:57:40
93,san quintin,30.4833,-115.95,56.61,86,15,13.44,MX,2023-04-17 03:57:40
94,tura,25.5198,90.2201,93.27,28,3,7.54,IN,2023-04-17 03:57:41
95,salalah,17.0151,54.0924,81.3,66,0,3.09,OM,2023-04-17 03:57:41
96,butaritari,3.0707,172.7902,82.72,77,69,10.63,KI,2023-04-17 03:57:41
97,kavieng,-2.5744,150.7967,82.94,75,96,10.25,PG,2023-04-17 03:57:41
98,chuy,-33.6971,-53.4616,59.76,72,87,8.01,UY,2023-04-17 03:57:41
99,tual,-5.6667,132.75,83.91,73,85,11.14,ID,2023-04-17 03:57:41
100,chapleau,47.8405,-83.4034,45.81,97,100,7.7,CA,2023-04-17 03:57:42
101,jeremoabo,-10.075,-38.4808,71.1,99,68,5.28,BR,2023-04-17 03:57:42
102,kruisfontein,-34.0033,24.7314,56.43,60,0,4.07,ZA,2023-04-17 03:53:41
103,mezen,65.8522,44.24,24.87,95,84,3.44,RU,2023-04-17 03:57:43
104,libertador general san martin,-23.8064,-64.7876,60.57,99,100,0.54,AR,2023-04-17 03:57:43
105,upernavik,72.7868,-56.1549,-4.59,100,99,7.45,GL,2023-04-17 03:57:43
106,teahupoo,-17.8333,-149.2667,78.76,73,18,6.33,PF,2023-04-17 03:57:44
107,chokurdakh,70.6333,147.9167,13.57,88,18,4.07,RU,2023-04-17 03:57:44
108,ibra,22.6906,58.5334,84.54,26,9,1.05,OM,2023-04-17 03:57:44
109,egvekinot,66.3167,-179.1667,11.01,83,69,3.29,RU,2023-04-17 03:57:44
110,alta floresta,-9.8756,-56.0861,73.08,94,94,3.04,BR,2023-04-17 03:57:44
111,fortuna,40.5982,-124.1573,50.67,86,85,3.33,US,2023-04-17 03:57:44
112,champerico,14.3,-91.9167,83.16,66,9,8.32,GT,2023-04-17 03:57:45
113,aklavik,68.2191,-135.0107,9.45,93,100,14.25,CA,2023-04-17 03:57:45
114,payyannur,12.1,75.2,88.12,65,34,3.36,IN,2023-04-17 03:57:45
115,novopokrovka,49.8425,36.5477,40.86,60,100,9.46,UA,2023-04-17 03:57:46
116,brigantine,39.4101,-74.3646,59.02,95,100,5.75,US,2023-04-17 03:57:46
117,okhotsk,59.3833,143.3,29.1,83,98,4.81,RU,2023-04-17 03:57:46
118,srednekolymsk,67.45,153.6833,28.58,86,41,5.17,RU,2023-04-17 03:57:46
119,mahebourg,-20.4081,57.7,80.26,94,75,2.3,MU,2023-04-17 03:57:47
120,lingao,19.9103,109.6859,86.16,64,50,5.86,CN,2023-04-17 03:57:47
121,bolobo,-2.1667,16.2333,72.07,94,100,2.64,CD,2023-04-17 03:57:48
122,darasun,51.6667,114.0,39.54,23,17,7.92,RU,2023-04-17 03:57:48
123,klyuchi,52.2667,79.1667,27.72,91,100,12.15,RU,2023-04-17 03:57:48
124,solnechnyy,50.7214,136.6319,39.99,51,34,7.23,RU,2023-04-17 03:57:49
125,klaksvik,62.2266,-6.589,49.12,98,100,18.16,FO,2023-04-17 03:57:49
126,victoria,22.2855,114.1577,84.43,75,7,11.01,HK,2023-04-17 03:57:49
127,portland,45.5234,-122.6762,46.99,73,56,7.0,US,2023-04-17 03:54:34
128,longyearbyen,78.2186,15.6401,33.64,93,75,8.05,SJ,2023-04-17 03:57:50
129,surgut,61.25,73.4167,-1.91,59,0,18.01,RU,2023-04-17 03:57:50
130,bartica,6.4,-58.6167,77.32,98,97,1.77,GY,2023-04-17 03:57:51
131,ketchikan,55.3422,-131.6461,43.27,75,100,11.5,US,2023-04-17 03:56:28
132,beatrice,40.2681,-96.747,45.27,55,0,4.61,US,2023-04-17 03:57:36
133,qianan,44.9932,124.0581,60.87,18,100,16.82,CN,2023-04-17 03:57:51
134,hasaki,35.7333,140.8333,66.6,51,65,9.08,JP,2023-04-17 03:57:52
135,souillac,-20.5167,57.5167,75.58,94,75,2.3,MU,2023-04-17 03:57:52
136,khatanga,71.9667,102.5,15.22,85,100,13.42,RU,2023-04-17 03:57:52
137,tarauaca,-8.1614,-70.7656,71.85,99,93,2.3,BR,2023-04-17 03:57:52
138,sept-iles,50.2001,-66.3821,36.12,66,100,5.75,CA,2023-04-17 03:57:52
139,athabasca,54.7169,-113.2854,50.41,60,83,15.12,CA,2023-04-17 03:57:53
140,georgetown,5.4112,100.3354,89.53,74,20,5.75,MY,2023-04-17 03:57:53
141,waipawa,-41.4122,175.5153,61.99,70,97,10.67,NZ,2023-04-17 03:57:53
142,nikolskoye,59.7035,30.7861,39.79,81,89,2.33,RU,2023-04-17 03:57:53
143,east london,-33.0153,27.9116,52.74,93,0,3.44,ZA,2023-04-17 03:57:53
144,malakal,9.5334,31.6605,84.56,50,95,2.13,SS,2023-04-17 03:57:53
145,iskateley,67.6803,53.1512,21.36,94,93,3.22,RU,2023-04-17 03:57:54
146,saskylakh,71.9167,114.0833,10.2,92,100,12.17,RU,2023-04-17 03:57:54
147,morondava,-20.2833,44.2833,75.27,89,1,7.63,MG,2023-04-17 03:57:55
148,wanning,18.8003,110.3967,82.85,76,87,10.67,CN,2023-04-17 03:57:55
149,saint-augustin,51.226,-58.6502,36.25,67,70,4.16,CA,2023-04-17 03:57:56
150,la ronge,55.1001,-105.2842,37.65,65,20,8.05,CA,2023-04-17 03:57:56
151,beira,-19.8436,34.8389,75.29,78,20,5.01,MZ,2023-04-17 03:57:56
152,kilindoni,-7.9139,39.6668,78.46,85,100,11.63,TZ,2023-04-17 03:57:56
153,cap malheureux,-19.9842,57.6142,80.47,78,35,10.54,MU,2023-04-17 03:57:57
154,maniitsoq,65.4167,-52.9,26.78,63,42,11.14,GL,2023-04-17 03:57:57
155,lorengau,-2.0226,147.2712,82.83,74,97,8.1,PG,2023-04-17 03:57:57
156,lanzhou,36.0564,103.7922,72.28,20,2,13.11,CN,2023-04-17 03:57:57
157,ust-nera,64.5667,143.2,26.46,83,100,0.51,RU,2023-04-17 03:57:58
158,torbay,47.6666,-52.7314,31.26,89,75,4.61,CA,2023-04-17 03:57:58
159,ribeira grande,38.5167,-28.7,56.77,83,86,4.0,PT,2023-04-17 03:57:58
160,honiara,-9.4333,159.95,83.52,68,42,3.02,SB,2023-04-17 03:55:47
161,tenenkou,14.4572,-4.9169,80.83,8,1,8.97,ML,2023-04-17 03:57:59
162,uige,-7.6087,15.0613,68.31,94,100,2.39,AO,2023-04-17 03:57:59
163,traian,46.6333,27.0333,47.91,87,75,3.44,RO,2023-04-17 03:58:00
164,kamarion,36.8,25.8167,58.75,89,100,10.04,GR,2023-04-17 03:58:00
165,sarab,38.6066,44.9883,51.64,66,74,1.14,IR,2023-04-17 03:58:00
166,mount gambier,-37.8333,140.7667,65.55,72,68,10.07,AU,2023-04-17 03:58:01
167,moanda,-1.5575,13.2178,69.82,98,100,1.39,GA,2023-04-17 03:58:01
168,mayenne,48.3333,-0.6667,42.24,93,24,5.35,FR,2023-04-17 03:58:01
169,moyale,3.5167,39.0584,67.26,85,73,2.33,KE,2023-04-17 03:58:01
170,rocha,-34.4833,-54.3333,55.13,94,100,3.31,UY,2023-04-17 03:55:26
171,clyde river,70.4692,-68.5914,-1.97,78,0,19.57,CA,2023-04-17 03:58:01
172,lompoc,34.6391,-120.4579,51.94,86,0,11.5,US,2023-04-17 03:56:27
173,humenne,48.9371,21.9163,50.05,90,99,4.12,SK,2023-04-17 03:58:02
174,suruc,36.9761,38.425,61.16,57,20,0.6,TR,2023-04-17 03:58:03
175,zalantun,48.0,122.7167,51.31,34,100,10.27,CN,2023-04-17 03:58:03
176,sabha,27.0377,14.4283,64.9,32,91,14.32,LY,2023-04-17 03:58:03
177,arraial do cabo,-22.9661,-42.0278,74.86,82,14,10.02,BR,2023-04-17 03:58:04
178,cayenne,4.9333,-52.3333,77.04,100,100,2.3,GF,2023-04-17 03:58:04
179,broken hill,-31.95,141.4333,64.69,37,0,7.7,AU,2023-04-17 03:55:09
180,noceto,44.8114,10.1713,47.44,75,12,2.51,IT,2023-04-17 03:58:05
181,cidreira,-30.1811,-50.2056,67.78,95,66,10.47,BR,2023-04-17 03:58:05
182,puerto escondido,15.85,-97.0667,80.51,75,3,4.38,MX,2023-04-17 03:58:05
183,atambua,-9.1061,124.8925,80.17,78,100,3.51,ID,2023-04-17 03:58:05
184,narsaq,60.9167,-46.05,30.96,58,81,7.45,GL,2023-04-17 03:58:06
185,karakulino,56.012,53.7067,36.7,65,35,6.82,RU,2023-04-17 03:58:06
186,voi,-3.3945,38.563,70.72,90,58,6.31,KE,2023-04-17 03:58:06
187,san cristobal,7.7669,-72.225,71.78,89,99,1.07,VE,2023-04-17 03:58:06
188,baykit,61.67,96.37,20.75,76,100,5.57,RU,2023-04-17 03:58:07
189,bengkulu,-3.8004,102.2655,84.07,67,83,4.47,ID,2023-04-17 03:58:07
190,gympie,-26.1898,152.665,81.43,55,46,12.03,AU,2023-04-17 03:58:07
191,khandela,27.6,75.5,89.8,24,1,11.36,IN,2023-04-17 03:58:07
192,abnub,27.2696,31.1511,62.82,24,0,2.48,EG,2023-04-17 03:58:07
193,tuktoyaktuk,69.4541,-133.0374,8.6,85,100,10.36,CA,2023-04-17 03:58:08
194,bettiah,26.8,84.5,100.15,8,0,7.92,IN,2023-04-17 03:58:08
195,hatillo,18.4863,-66.8254,76.08,91,4,1.99,PR,2023-04-17 03:58:08
196,bay roberts,47.5999,-53.2648,31.33,91,95,5.14,CA,2023-04-17 03:58:09
197,zhezkazgan,47.8043,67.7144,28.38,80,75,20.13,KZ,2023-04-17 03:58:09
198,amalapuram,16.5833,82.0167,94.64,40,98,5.88,IN,2023-04-17 03:58:10
199,esperance,-33.8667,121.9,71.73,54,0,14.81,AU,2023-04-17 03:58:10
200,ust-ordynskiy,52.805,104.7508,35.17,31,97,6.64,RU,2023-04-17 03:58:10
201,faanui,-16.4833,-151.75,81.79,73,26,8.46,PF,2023-04-17 03:58:10
202,barranca,-10.75,-77.7667,74.84,81,98,7.07,PE,2023-04-17 03:58:11
203,dhidhdhoo,6.8833,73.1,83.28,72,35,6.35,MV,2023-04-17 03:58:11
204,carballo,43.213,-8.691,58.42,75,100,3.49,ES,2023-04-17 03:58:12
205,khani,41.9563,42.9566,49.57,72,67,4.52,GE,2023-04-17 03:58:12
206,lac du bonnet,50.2536,-96.0612,28.92,89,53,4.94,CA,2023-04-17 03:58:12
207,zhigansk,66.7697,123.3711,29.64,87,82,2.84,RU,2023-04-17 03:58:12
208,uromi,6.7,6.3333,73.76,86,100,3.78,NG,2023-04-17 03:58:13
209,palmer,42.1584,-72.3287,60.62,90,100,4.61,US,2023-04-17 03:57:51
210,sao sebastiao do cai,-29.5867,-51.3756,72.18,97,86,0.67,BR,2023-04-17 03:58:13
211,alice springs,-23.7,133.8833,65.75,42,0,13.8,AU,2023-04-17 03:58:14
212,joshimath,30.5667,79.5667,70.09,38,5,3.38,IN,2023-04-17 03:58:14
213,nantucket,41.2835,-70.0995,51.94,98,100,3.44,US,2023-04-17 03:58:14
214,necochea,-38.5473,-58.7368,48.09,78,54,10.0,AR,2023-04-17 03:58:15
215,rorvik,64.8621,11.2373,37.51,87,98,2.3,NO,2023-04-17 03:58:15
216,port-gentil,-0.7193,8.7815,78.57,83,100,12.8,GA,2023-04-17 03:58:15
217,manaure,11.7751,-72.4445,79.18,75,98,11.54,CO,2023-04-17 03:58:15
218,kropotkin,45.4375,40.5756,41.65,42,98,21.34,RU,2023-04-17 03:58:16
219,ormara,25.2088,64.6357,78.78,64,5,3.42,PK,2023-04-17 03:58:16
220,mustafakemalpasa,40.0353,28.4117,57.56,76,100,2.86,TR,2023-04-17 03:58:17
221,maiduguri,11.8464,13.1603,79.54,38,95,7.85,NG,2023-04-17 03:58:17
222,saltillo,25.4167,-101.0,55.29,77,52,4.5,MX,2023-04-17 03:58:17
223,oksfjord,70.2396,22.3479,39.38,99,100,5.35,NO,2023-04-17 03:58:17
224,anloga,5.7947,0.8973,82.13,78,100,9.17,GH,2023-04-17 03:58:18
225,ushtobe,45.2514,77.9838,53.26,78,100,24.74,KZ,2023-04-17 03:58:18
226,lagoa,39.05,-27.9833,57.72,73,94,19.73,PT,2023-04-17 03:58:18
227,guanica,17.9716,-66.908,74.05,78,2,5.23,PR,2023-04-17 03:58:18
228,airai,-8.9266,125.4092,70.52,79,99,1.92,TL,2023-04-17 03:58:19
229,dzhankoy,45.7167,34.4,45.09,70,61,17.2,UA,2023-04-17 03:58:19
230,mga,59.75,31.0667,39.83,75,89,2.53,RU,2023-04-17 03:58:20
231,ahuimanu,21.4447,-157.8378,80.31,78,75,10.36,US,2023-04-17 03:58:21
232,hokitika,-42.7167,170.9667,62.28,70,82,3.31,NZ,2023-04-17 03:58:21
233,balikpapan,-1.2675,116.8289,88.79,66,20,4.61,ID,2023-04-17 03:58:21
234,kurchum,48.5722,83.6542,47.39,50,100,20.0,KZ,2023-04-17 03:58:22
235,ahipara,-35.1667,173.1667,68.63,70,9,14.14,NZ,2023-04-17 03:58:22
236,muzaffarabad,34.37,73.4711,74.79,48,100,6.53,PK,2023-04-17 03:58:22
237,hambantota,6.1241,81.1185,84.54,84,0,2.3,LK,2023-04-17 03:58:22
238,coihaique,-45.5752,-72.0662,39.15,87,0,5.75,CL,2023-04-17 03:58:22
239,ende,-8.8432,121.6623,84.34,75,85,3.89,ID,2023-04-17 03:58:23
240,salinopolis,-0.6136,-47.3561,78.64,86,100,3.76,BR,2023-04-17 03:53:25
241,saldanha,-33.0117,17.9442,51.85,85,1,10.27,ZA,2023-04-17 03:58:23
242,te anau,-45.4167,167.7167,60.94,62,100,4.83,NZ,2023-04-17 03:58:24
243,ancud,-41.8697,-73.8203,46.6,84,83,3.89,CL,2023-04-17 03:58:24
244,bireun,5.203,96.7009,87.48,64,48,5.48,ID,2023-04-17 03:58:24
245,kaitangata,-46.2817,169.8464,61.93,69,98,3.09,NZ,2023-04-17 03:58:25
246,faya,18.3851,42.4509,55.92,48,0,2.39,SA,2023-04-17 03:58:25
247,idenao,4.2475,9.0047,77.97,77,100,1.16,CM,2023-04-17 03:58:25
248,mecca,21.4267,39.8261,79.66,64,1,2.3,SA,2023-04-17 03:58:25
249,ganzhou,28.8184,115.4327,85.64,51,4,14.52,CN,2023-04-17 03:58:26
250,porto de moz,-1.7483,-52.2383,73.47,99,100,2.82,BR,2023-04-17 03:58:26
251,taiyuan,37.8694,112.5603,69.66,32,0,4.47,CN,2023-04-17 03:58:27
252,whitehorse,60.7161,-135.0538,38.01,74,75,2.3,CA,2023-04-17 03:58:27
253,mabai,23.0128,104.4508,76.32,50,56,8.41,CN,2023-04-17 03:58:27
254,caravelas,-17.7125,-39.2481,75.81,83,78,6.42,BR,2023-04-17 03:58:28
255,zemio,5.0314,25.1361,71.44,88,100,2.98,CF,2023-04-17 03:58:29
256,landau,49.2075,8.1133,48.52,84,100,5.64,DE,2023-04-17 03:58:29
257,veranopolis,-28.9361,-51.5494,64.53,100,99,1.3,BR,2023-04-17 03:57:01
258,moose factory,51.2585,-80.6094,33.8,86,100,10.36,CA,2023-04-17 03:58:30
259,yulara,-25.2406,130.9889,70.34,29,0,13.0,AU,2023-04-17 03:58:30
260,katsuura,35.1333,140.3,57.24,67,37,8.5,JP,2023-04-17 03:58:30
261,port macquarie,-31.4333,152.9167,71.89,62,35,13.18,AU,2023-04-17 03:54:40
262,vardo,70.3705,31.1107,31.98,74,100,5.75,NO,2023-04-17 03:58:31
263,morgantown,39.6295,-79.9559,52.9,94,100,5.75,US,2023-04-17 03:53:47
264,pacific grove,36.6177,-121.9166,56.01,80,0,11.5,US,2023-04-17 03:56:59
265,batagay-alyta,67.8006,130.4114,23.59,83,96,4.14,RU,2023-04-17 03:58:31
266,grindavik,63.8424,-22.4338,46.87,93,100,12.66,IS,2023-04-17 03:58:31
267,vitim,59.4511,112.5578,24.22,64,60,5.75,RU,2023-04-17 03:58:32
268,taganak,6.0833,118.3,89.74,73,5,5.66,PH,2023-04-17 03:58:33
269,carnarvon,-24.8667,113.6333,80.19,30,100,7.34,AU,2023-04-17 03:58:33
270,tres lagoas,-20.7511,-51.6783,72.73,83,1,4.05,BR,2023-04-17 03:58:33
271,santa lucia,27.9117,-15.5407,58.77,63,40,6.91,ES,2023-04-17 03:58:34
272,bintulu,3.1667,113.0333,90.01,66,40,3.44,MY,2023-04-17 03:58:34
273,revelstoke,50.9832,-118.2023,41.02,100,100,4.61,CA,2023-04-17 03:58:34
274,calvinia,-31.4707,19.776,62.29,20,0,7.94,ZA,2023-04-17 03:58:34
275,laguna,38.421,-121.4238,60.31,71,0,8.05,US,2023-04-17 03:58:35
276,mill valley,37.906,-122.545,54.63,82,77,14.0,US,2023-04-17 03:57:59
277,xingyi,24.1877,102.817,82.98,19,42,15.23,CN,2023-04-17 03:58:35
278,nyrob,60.733,56.7202,32.29,86,98,4.7,RU,2023-04-17 03:58:36
279,sitka,57.0531,-135.33,49.89,43,75,4.61,US,2023-04-17 03:58:36
280,at-bashi,41.1702,75.8106,46.13,65,99,2.75,KG,2023-04-17 03:58:36
281,cabo san lucas,22.8909,-109.9124,72.52,70,42,11.23,MX,2023-04-17 03:58:36
282,sur,22.5667,59.5289,84.07,46,12,3.44,OM,2023-04-17 03:58:37
283,melchor de mencos,17.0686,-89.1522,82.4,78,0,13.42,GT,2023-04-17 03:58:37
284,sarankhola,22.3082,89.7897,100.65,31,20,5.03,BD,2023-04-17 03:58:37
285,atar,20.5169,-13.0499,77.97,22,0,4.76,MR,2023-04-17 03:58:37
286,taywarah,33.35,64.4167,47.01,64,100,5.14,AF,2023-04-17 03:58:38
287,koutsouras,35.0339,25.9469,60.12,80,74,2.19,GR,2023-04-17 03:58:38
288,port hedland,-20.3167,118.5667,86.05,21,9,11.5,AU,2023-04-17 03:58:38
289,margate,51.3813,1.3862,46.9,88,99,1.01,GB,2023-04-17 03:56:14
290,bambous virieux,-20.3428,57.7575,80.22,94,75,2.3,MU,2023-04-17 03:58:39
291,ossora,59.2353,163.0719,32.22,100,100,5.77,RU,2023-04-17 03:58:39
292,adela,12.4416,120.9729,88.9,57,99,9.75,PH,2023-04-17 03:58:39
293,goderich,43.7501,-81.7165,46.9,93,86,11.5,CA,2023-04-17 03:58:39
294,vao,-22.6667,167.4833,79.81,87,99,14.56,NC,2023-04-17 03:58:40
295,richards bay,-28.783,32.0377,60.84,90,0,7.65,ZA,2023-04-17 03:58:40
296,ciudad bolivar,8.1222,-63.5497,82.65,57,93,12.93,VE,2023-04-17 03:58:40
297,sao filipe,14.8961,-24.4956,74.41,80,10,10.11,CV,2023-04-17 03:58:40
298,pangnirtung,66.1451,-65.7125,1.36,96,93,3.78,CA,2023-04-17 03:58:41
299,blagoyevo,63.3667,47.9167,27.86,90,97,3.0,RU,2023-04-17 03:58:41
300,poum,-20.2333,164.0167,78.19,89,98,24.96,NC,2023-04-17 03:58:41
301,ostersund,63.1792,14.6357,32.61,100,100,5.01,SE,2023-04-17 03:58:42
302,ifakara,-8.1333,36.6833,70.63,97,98,1.19,TZ,2023-04-17 03:58:42
303,kudahuvadhoo,2.6708,72.8944,82.81,70,53,2.89,MV,2023-04-17 03:58:43
304,benguela,-12.5763,13.4055,77.49,84,97,2.08,AO,2023-04-17 03:58:43
305,rio grande,-32.035,-52.0986,65.93,87,94,12.41,BR,2023-04-17 03:58:43
306,jawhar,2.7809,45.5005,80.44,72,56,4.09,SO,2023-04-17 03:58:43
307,hopelchen,19.7667,-89.85,75.43,75,19,7.74,MX,2023-04-17 03:58:43
308,carbondale,37.7273,-89.2168,51.8,55,100,11.5,US,2023-04-17 03:58:01
309,hamilton,39.1834,-84.5333,47.08,70,100,12.66,US,2023-04-17 03:58:44
310,taksimo,56.3444,114.8794,24.93,41,4,3.13,RU,2023-04-17 03:58:44
311,pitsunda,43.1592,40.3378,53.78,71,95,12.5,GE,2023-04-17 03:58:44
312,constitucion,-35.3333,-72.4167,49.6,87,1,12.91,CL,2023-04-17 03:58:44
313,santa rosa,14.3122,121.1114,90.01,66,76,5.59,PH,2023-04-17 03:58:44
314,general roca,-39.0333,-67.5833,53.62,36,0,15.37,AR,2023-04-17 03:58:45
315,inta,66.0317,60.1659,19.33,77,100,7.87,RU,2023-04-17 03:58:45
316,jaque,7.5175,-78.1703,77.31,87,100,7.38,PA,2023-04-17 03:58:45
317,alugan,12.2188,125.4808,85.12,66,87,7.02,PH,2023-04-17 03:58:46
318,sorkjosen,69.8,20.9333,35.6,93,75,4.61,NO,2023-04-17 03:58:46
319,bambanglipuro,-7.95,110.2833,85.6,62,26,5.64,ID,2023-04-17 03:58:46
320,evanston,42.0411,-87.6901,35.89,87,100,13.8,US,2023-04-17 03:58:46
321,bubaque,11.2833,-15.8333,78.15,73,14,11.39,GW,2023-04-17 03:58:46
322,ulundi,-28.3352,31.4162,55.04,86,0,5.03,ZA,2023-04-17 03:58:47
323,kavaratti,10.5669,72.642,82.96,72,9,1.79,IN,2023-04-17 03:58:47
324,akhalgori,42.126,44.4833,43.61,91,100,7.2,GE,2023-04-17 03:58:47
325,lebu,-37.6167,-73.65,50.94,78,44,12.21,CL,2023-04-17 03:58:47
326,asasa,7.1,39.2,53.96,89,24,3.83,ET,2023-04-17 03:58:47
327,naze,28.3667,129.4833,72.52,56,4,7.2,JP,2023-04-17 03:58:48
328,baft,29.234,56.6057,51.84,51,54,3.22,IR,2023-04-17 03:58:48
329,pochutla,15.7432,-96.4661,81.82,77,29,3.56,MX,2023-04-17 03:58:48
330,huarmey,-10.0681,-78.1522,77.02,81,98,8.66,PE,2023-04-17 03:58:48
331,geraldton,-28.7667,114.6,81.01,28,100,4.61,AU,2023-04-17 03:58:48
332,simao,22.7886,100.9748,89.11,19,2,8.14,CN,2023-04-17 03:58:49
333,nanortalik,60.1432,-45.2371,31.06,89,99,1.1,GL,2023-04-17 03:58:49
334,petropavlovsk-kamchatskiy,53.0452,158.6483,36.19,87,100,20.13,RU,2023-04-17 03:58:49
335,havelock,34.8791,-76.9013,69.98,85,0,16.11,US,2023-04-17 03:58:49
336,shimoda,34.6667,138.95,66.11,50,38,3.87,JP,2023-04-17 03:58:49
337,sinnamary,5.3833,-52.95,77.16,90,100,8.97,GF,2023-04-17 03:58:50
338,road town,18.4167,-64.6167,77.09,78,3,16.78,VG,2023-04-17 03:57:13
339,ponta do sol,32.6667,-17.1,63.23,72,84,3.15,PT,2023-04-17 03:58:50
340,rangapara,26.8167,92.65,94.44,24,0,7.02,IN,2023-04-17 03:58:50
341,onguday,50.75,86.15,38.53,87,100,6.17,RU,2023-04-17 03:58:50
342,tsurugi,36.45,136.6333,53.29,72,87,7.52,JP,2023-04-17 03:58:51
343,kushmurun,52.4503,64.6311,36.07,39,1,13.42,KZ,2023-04-17 03:58:51
344,flinders,-34.5833,150.8552,66.25,59,67,6.08,AU,2023-04-17 03:58:51
345,nioro,13.35,-15.75,82.31,39,25,4.72,GM,2023-04-17 03:58:51
346,aguimes,27.9054,-15.4461,63.66,63,40,8.99,ES,2023-04-17 03:58:51
347,gao,16.6362,1.637,77.52,9,1,8.12,ML,2023-04-17 03:58:52
348,pisco,-13.7,-76.2167,71.65,83,0,11.5,PE,2023-04-17 03:58:52
349,akyab,20.15,92.9,86.99,69,21,7.74,MM,2023-04-17 03:58:52
350,maneadero,31.7167,-116.5667,56.1,81,39,4.0,MX,2023-04-17 03:58:52
351,san gabriel,34.0961,-118.1058,62.58,74,100,0.0,US,2023-04-17 03:58:52
352,fairview,40.8126,-73.999,59.77,86,100,10.36,US,2023-04-17 03:58:53
353,zima,53.9202,102.0442,33.1,49,100,3.85,RU,2023-04-17 03:58:53
354,burnie,-41.0667,145.9167,69.46,70,20,9.48,AU,2023-04-17 03:58:53
355,domoni,-12.2569,44.5319,80.33,80,45,6.08,KM,2023-04-17 03:58:53
356,jamsa,61.8642,25.19,23.72,98,95,2.51,FI,2023-04-17 03:58:53
357,cherskiy,68.75,161.3,29.37,71,15,5.48,RU,2023-04-17 03:58:53
358,katima mulilo,-17.5,24.2667,57.45,74,0,4.21,NA,2023-04-17 03:58:54
359,paita,-5.0892,-81.1144,78.93,79,100,6.13,PE,2023-04-17 03:58:54
360,boende,-0.2167,20.8667,69.33,99,100,2.71,CD,2023-04-17 03:58:54
361,ronnede,55.2571,12.0212,35.6,81,55,6.31,DK,2023-04-17 03:58:55
362,touros,-5.1989,-35.4608,77.72,90,99,7.49,BR,2023-04-17 03:58:55
363,gat,31.61,34.7642,65.39,100,0,3.24,IL,2023-04-17 03:54:05
364,costa rica,-23.4167,-54.65,68.59,97,1,3.91,BR,2023-04-17 03:58:55
365,quatre cocos,-20.2078,57.7625,80.1,79,63,7.9,MU,2023-04-17 03:58:55
366,banda aceh,5.5577,95.3222,87.39,65,13,4.09,ID,2023-04-17 03:58:56
367,touho,-20.7833,165.2333,81.82,78,65,4.97,NC,2023-04-17 03:58:56
368,alihe,50.5667,123.7167,53.47,24,100,11.32,CN,2023-04-17 03:58:56
369,scarborough,54.2797,-0.4044,47.34,88,79,1.99,GB,2023-04-17 03:58:56
370,luang prabang,19.8856,102.1347,91.36,52,0,4.61,LA,2023-04-17 03:58:57
371,cabra,37.4725,-4.4421,51.06,68,17,3.33,ES,2023-04-17 03:58:57
372,batangafo,7.3008,18.2833,70.79,83,74,4.14,CF,2023-04-17 03:58:57
373,klamath falls,42.2249,-121.7817,44.51,57,0,14.97,US,2023-04-17 03:56:45
374,dawlatabad,36.4141,64.9053,63.52,37,100,15.39,AF,2023-04-17 03:58:57
375,dunedin,-45.8742,170.5036,61.9,65,84,7.76,NZ,2023-04-17 03:58:58
376,kysyl-syr,63.8986,122.7617,32.63,100,100,7.47,RU,2023-04-17 03:58:58
377,north bend,43.4065,-124.2243,48.11,80,40,6.91,US,2023-04-17 03:58:58
378,santa fe,-31.6333,-60.7,60.01,79,93,8.01,AR,2023-04-17 03:58:58
379,nelson bay,-32.7167,152.15,72.09,63,98,8.01,AU,2023-04-17 03:58:58
380,kamenka,51.3223,42.7678,41.68,54,94,5.32,RU,2023-04-17 03:58:58
381,mamakan,57.8161,114.0028,25.3,53,38,3.31,RU,2023-04-17 03:58:59
382,sibu,2.3,111.8167,88.11,70,40,2.3,MY,2023-04-17 03:58:59
383,vuktyl,63.8567,57.3094,30.13,95,100,6.38,RU,2023-04-17 03:58:59
384,pemba,-12.974,40.5178,74.62,89,57,12.95,MZ,2023-04-17 03:58:59
385,bestobe,52.4994,73.0975,31.68,61,100,14.54,KZ,2023-04-17 03:59:00
386,maroantsetra,-15.4333,49.7333,76.5,86,82,6.04,MG,2023-04-17 03:59:00
387,marrakesh,31.6315,-8.0083,68.07,49,0,2.3,MA,2023-04-17 03:59:00
388,vaitape,-16.5167,-151.75,81.81,73,29,8.43,PF,2023-04-17 03:59:00
389,muros,42.7762,-9.0603,50.85,91,86,5.73,ES,2023-04-17 03:59:00
390,lavrentiya,65.5833,-171.0,9.54,87,31,0.54,RU,2023-04-17 03:59:01
391,jacareacanga,-6.2222,-57.7528,72.97,98,98,1.01,BR,2023-04-17 03:59:01
392,buala,-8.145,159.5921,82.44,71,69,4.72,SB,2023-04-17 03:59:01
393,fort nelson,58.8053,-122.7002,53.19,40,100,4.61,CA,2023-04-17 03:59:01
394,celestun,20.8667,-90.4,76.15,77,0,15.88,MX,2023-04-17 03:59:01
395,filingue,14.3521,3.3168,80.58,13,96,4.27,NE,2023-04-17 03:59:02
396,homer,59.6425,-151.5483,33.76,90,100,13.0,US,2023-04-17 03:59:03
397,cabedelo,-6.9811,-34.8339,74.07,82,100,9.44,BR,2023-04-17 03:59:03
398,tilichiki,60.4667,166.1,30.76,98,100,12.12,RU,2023-04-17 03:59:03
399,atasu,48.6814,71.6433,29.25,82,100,20.47,KZ,2023-04-17 03:59:04
400,behbahan,30.5959,50.2417,69.8,31,0,1.66,IR,2023-04-17 03:59:04
401,cuamba,-14.8031,36.5372,64.15,96,87,3.87,MZ,2023-04-17 03:59:04
402,hualmay,-11.0964,-77.6139,75.06,81,96,8.52,PE,2023-04-17 03:59:05
403,galesong,-5.3166,119.3661,87.82,71,77,3.38,ID,2023-04-17 03:59:05
404,castanhal,-1.2939,-47.9264,74.3,94,100,2.53,BR,2023-04-17 03:59:05
405,coos bay,43.3665,-124.2179,48.18,81,40,6.91,US,2023-04-17 03:59:06
406,charters towers,-20.1,146.2667,73.6,76,98,18.54,AU,2023-04-17 03:59:06
407,baiao,-2.7906,-49.6717,73.74,99,100,1.32,BR,2023-04-17 03:59:06
408,curup,-3.4667,102.5333,82.92,56,100,4.05,ID,2023-04-17 03:59:06
409,goulburn,-34.75,149.7167,62.78,46,0,1.99,AU,2023-04-17 03:59:07
410,dongsheng,39.8161,109.9776,69.37,24,92,22.88,CN,2023-04-17 03:59:07
411,ukiah,39.1502,-123.2078,51.64,81,85,1.01,US,2023-04-17 03:59:08
412,awjilah,29.1081,21.2869,67.71,25,0,7.54,LY,2023-04-17 03:59:08
413,adrar,20.5022,-10.0711,76.37,20,0,8.75,MR,2023-04-17 03:59:08
414,san patricio,28.017,-97.5169,73.26,55,0,7.07,US,2023-04-17 03:59:08
415,panacan,9.2463,118.4082,85.6,68,99,5.55,PH,2023-04-17 03:59:09
416,pangkalanbuun,-2.6833,111.6167,93.63,49,68,2.48,ID,2023-04-17 03:59:09
417,cairns,-16.9167,145.7667,80.11,90,100,13.8,AU,2023-04-17 03:58:43
418,eureka,40.8021,-124.1637,50.94,87,74,4.76,US,2023-04-17 03:59:09
419,tumaco,1.7986,-78.8156,74.95,92,100,4.16,CO,2023-04-17 03:59:10
420,altamira,-3.2033,-52.2064,74.07,99,100,1.23,BR,2023-04-17 03:59:10
421,oussouye,12.485,-16.5469,75.38,73,2,3.78,SN,2023-04-17 03:59:11
422,thompson,55.7435,-97.8558,32.16,47,40,6.91,CA,2023-04-17 03:59:12
423,bowen,-20.0167,148.2333,75.92,81,100,6.89,AU,2023-04-17 03:59:12
424,los llanos de aridane,28.6585,-17.9182,62.35,86,100,6.91,ES,2023-04-17 03:59:12
425,shenjiamen,29.9576,122.298,62.65,92,21,18.28,CN,2023-04-17 03:59:12
426,lata,40.1629,-8.3327,53.92,59,37,4.27,PT,2023-04-17 03:59:12
427,makakilo city,21.3469,-158.0858,79.12,68,0,12.66,US,2023-04-17 03:59:13
428,iquique,-20.2208,-70.1431,64.44,78,100,3.71,CL,2023-04-17 03:54:51
429,teya,60.3778,92.6267,16.84,78,100,5.64,RU,2023-04-17 03:59:13
430,shrigonda,18.6167,74.6833,88.68,13,88,12.64,IN,2023-04-17 03:59:13
431,tiksi,71.6872,128.8694,9.03,91,100,4.14,RU,2023-04-17 03:59:14
432,correntina,-13.3433,-44.6367,76.57,55,53,1.21,BR,2023-04-17 03:59:14
433,biltine,14.5333,20.9167,84.99,10,76,15.3,TD,2023-04-17 03:59:14
434,ilhabela,-23.7781,-45.3581,73.33,90,29,8.25,BR,2023-04-17 03:59:15
435,mao,39.8885,4.2658,52.36,87,0,5.75,ES,2023-04-17 03:59:15
436,sidney,-33.8679,151.2073,71.76,63,20,12.66,AU,2023-04-17 03:55:59
437,cabuyaro,4.2817,-72.794,74.16,97,100,0.49,CO,2023-04-17 03:59:16
438,stornoway,58.2093,-6.3865,50.94,94,100,0.0,GB,2023-04-17 03:59:16
439,daru,-9.0763,143.2092,85.55,72,97,6.31,PG,2023-04-17 03:59:16
440,villiers,-27.0303,28.6006,47.32,65,0,3.42,ZA,2023-04-17 03:59:16
441,navalmoral de la mata,39.8916,-5.5406,57.96,45,3,3.38,ES,2023-04-17 03:59:17
442,dingle,10.9995,122.6711,90.68,54,85,6.29,PH,2023-04-17 03:59:17
443,sungairaya,0.7,108.9,88.41,58,85,5.53,ID,2023-04-17 03:59:17
444,zhireken,52.8249,117.3076,39.15,34,81,6.96,RU,2023-04-17 03:59:17
445,helena,46.5927,-112.0361,59.99,23,75,17.27,US,2023-04-17 03:59:18
446,bonavista,48.6499,-53.1147,30.88,89,99,4.76,CA,2023-04-17 03:59:18
447,tigil,57.8,158.6667,35.22,88,100,10.89,RU,2023-04-17 03:59:18
448,axim,4.8699,-2.2405,79.65,84,98,3.58,GH,2023-04-17 03:59:19
449,wells,51.2079,-2.649,51.46,86,100,0.89,GB,2023-04-17 03:59:19
450,maputo,-25.9653,32.5892,65.23,86,20,4.0,MZ,2023-04-17 03:59:19
451,hoima,1.4356,31.3436,63.05,97,87,3.06,UG,2023-04-17 03:59:19
452,palana,59.1167,159.9667,30.47,93,100,5.55,RU,2023-04-17 03:59:20
453,santiago de cuba,20.0247,-75.8219,73.29,93,13,2.59,CU,2023-04-17 03:59:20
454,udachnyy,66.4167,112.4,26.46,79,100,9.71,RU,2023-04-17 03:59:20
455,rio gallegos,-51.6226,-69.2181,35.65,69,0,14.97,AR,2023-04-17 03:59:21
456,iqaluit,63.7506,-68.5145,-0.67,78,20,5.75,CA,2023-04-17 03:59:21
457,labuhan,-6.8844,112.2051,84.42,73,74,6.08,ID,2023-04-17 03:59:21
458,scalea,39.813,15.7956,51.1,79,100,1.79,IT,2023-04-17 03:59:22
459,salta,-24.7859,-65.4117,57.79,89,100,6.91,AR,2023-04-17 03:59:22
460,avera,33.194,-82.5271,65.71,72,100,10.54,US,2023-04-17 03:59:23
461,gazanjyk,39.2446,55.5154,48.4,34,1,10.94,TM,2023-04-17 03:59:23
462,sibolga,1.7427,98.7792,85.86,68,89,3.91,ID,2023-04-17 03:58:10
463,saquena,-4.6667,-73.5167,75.85,88,100,2.39,PE,2023-04-17 03:59:24
464,kupang,-10.1667,123.5833,88.38,74,40,6.91,ID,2023-04-17 03:59:24
465,petropolis,59.8944,30.2642,40.05,64,71,2.24,RU,2023-04-17 03:57:21
466,nuuk,64.1835,-51.7216,27.88,92,7,17.0,GL,2023-04-17 03:59:25
467,deniliquin,-35.5333,144.9667,65.86,45,0,5.46,AU,2023-04-17 03:59:25
468,iralaya,15.0,-83.2333,78.82,78,9,9.75,HN,2023-04-17 03:59:25
469,rundu,-17.9333,19.7667,67.17,49,72,8.03,NA,2023-04-17 03:59:25
470,komsomolsk,49.0097,33.6455,41.23,63,73,11.03,UA,2023-04-17 03:59:26
471,sartell,45.6216,-94.2069,36.18,70,0,18.99,US,2023-04-17 03:59:26
472,arrecife,28.963,-13.5477,64.38,82,0,6.91,ES,2023-04-17 03:59:26
473,mokobeng,-22.9965,27.6678,54.61,95,1,3.6,BW,2023-04-17 03:59:27
474,inongo,-1.95,18.2667,71.73,95,98,1.52,CD,2023-04-17 03:59:27
475,chalus,36.655,51.4204,51.26,100,100,11.5,IR,2023-04-17 03:59:27
476,qui nhon,13.7667,109.2333,84.6,73,100,9.73,VN,2023-04-17 03:59:28
477,vestmanna,62.1564,-7.1664,47.32,100,100,10.36,FO,2023-04-17 03:59:28
478,peterhead,57.5058,-1.7981,46.8,96,93,14.72,GB,2023-04-17 03:59:28
479,alekseyevka,50.6309,38.6903,40.8,65,100,5.23,RU,2023-04-17 03:59:29
480,the valley,18.217,-63.0578,78.82,75,3,10.09,AI,2023-04-17 03:59:29
481,novikovo,51.1537,37.8879,41.27,63,100,5.46,RU,2023-04-17 03:59:29
482,nuevo progreso,23.1667,-97.95,71.47,72,99,1.01,MX,2023-04-17 03:59:30
483,darnah,32.767,22.6367,62.29,53,9,6.35,LY,2023-04-17 03:59:30
484,prince rupert,54.3161,-130.3201,42.89,66,0,25.32,CA,2023-04-17 03:59:30
485,krasnyy yar,46.5331,48.3456,37.33,40,3,4.68,RU,2023-04-17 03:59:30
486,sangar,63.9242,127.4739,33.75,86,100,14.29,RU,2023-04-17 03:59:30
487,teshie,5.5836,-0.1072,82.96,83,20,5.75,GH,2023-04-17 03:59:31
488,berlevag,70.8578,29.0864,35.6,80,100,9.22,NO,2023-04-17 03:59:31
489,abbotsford,49.058,-122.2526,43.68,90,75,11.5,CA,2023-04-17 03:58:36
490,taoudenni,22.6783,-3.9836,80.89,9,0,7.31,ML,2023-04-17 03:59:32
491,metro,-5.1131,105.3067,85.98,65,92,1.45,ID,2023-04-17 03:59:32
492,mackay,-21.15,149.2,86.68,67,74,11.12,AU,2023-04-17 03:59:32
493,sylacauga,33.1732,-86.2516,57.33,50,40,6.91,US,2023-04-17 03:59:32
494,mayo,38.8876,-76.5119,72.09,80,75,16.11,US,2023-04-17 03:59:33
495,soyo,-6.1349,12.3689,78.22,84,100,3.27,AO,2023-04-17 03:59:33
496,port blair,11.6667,92.75,88.27,55,100,2.46,IN,2023-04-17 03:59:33
497,savannah bight,16.45,-85.85,80.6,83,0,22.19,HN,2023-04-17 03:59:33
498,tsiroanomandidy,-18.7667,46.0333,64.2,93,94,3.04,MG,2023-04-17 03:59:34
499,marzuq,14.4,46.4667,73.49,26,39,4.68,YE,2023-04-17 03:59:34
500,puerto rico,-26.796,-55.024,70.77,100,85,0.96,AR,2023-04-17 03:58:39
501,arawa,-6.2132,155.5367,87.01,58,6,2.51,PG,2023-04-17 03:59:34
502,pascagoula,30.3658,-88.5561,60.84,87,0,0.0,US,2023-04-17 03:54:48
503,kungurtug,50.5994,97.5228,30.88,62,77,3.06,RU,2023-04-17 03:59:35
504,nabire,-3.3667,135.4833,87.13,65,41,6.44,ID,2023-04-17 03:59:35
505,ambon,-3.6954,128.1814,89.74,66,40,9.22,ID,2023-04-17 03:59:36
506,husavik,66.0449,-17.3389,41.59,87,100,9.89,IS,2023-04-17 03:59:36
507,rehoboth,-23.3167,17.0833,63.64,54,81,7.25,NA,2023-04-17 03:59:36
508,sindor,62.8629,51.8905,25.41,95,100,5.37,RU,2023-04-17 03:59:36
509,yar-sale,66.8333,70.8333,2.41,82,99,15.88,RU,2023-04-17 03:59:37
510,canar,-2.55,-78.9333,50.04,96,100,2.35,EC,2023-04-17 03:59:37
511,verkhoyansk,67.5447,133.385,26.92,82,100,2.04,RU,2023-04-17 03:59:37
512,bandarbeyla,9.4942,50.8122,81.21,71,46,4.9,SO,2023-04-17 03:59:37
513,oktyabrskiy,54.4815,53.471,38.46,57,17,6.67,RU,2023-04-17 03:59:38
514,mundargi,15.2167,75.9,87.8,45,12,5.82,IN,2023-04-17 03:59:38
515,jaca,42.569,-0.5499,37.11,77,11,4.56,ES,2023-04-17 03:59:38
516,beberibe,-4.1797,-38.1306,77.13,89,100,5.7,BR,2023-04-17 03:59:39
517,murray bridge,-35.1167,139.2667,71.13,42,0,4.9,AU,2023-04-17 03:59:39
518,gladstone,-23.85,151.25,87.78,54,40,10.36,AU,2023-04-17 03:59:39
519,kala nera,39.3063,23.12,54.79,74,95,3.71,GR,2023-04-17 03:59:39
520,tuatapere,-46.1333,167.6833,61.93,70,100,4.5,NZ,2023-04-17 03:59:39
521,puerto narino,-3.7703,-70.3831,74.08,99,100,2.57,CO,2023-04-17 03:59:40
522,escanaba,45.7453,-87.0646,39.51,100,100,6.91,US,2023-04-17 03:59:40
523,wittingen,52.7269,10.7361,42.8,95,78,6.02,DE,2023-04-17 03:59:40
524,halifax,44.6453,-63.5724,45.7,92,100,3.44,CA,2023-04-17 03:59:40
525,broome,42.2506,-75.833,65.19,81,59,8.99,US,2023-04-17 03:59:41
526,isangel,-19.55,169.2667,87.91,74,75,4.61,VU,2023-04-17 03:59:41
527,christchurch,-43.5333,172.6333,65.32,79,60,17.27,NZ,2023-04-17 03:58:17
528,salamanca,40.8333,-6.0,45.99,50,32,7.78,ES,2023-04-17 03:59:42
529,plettenberg bay,-34.0527,23.3716,60.69,52,0,1.81,ZA,2023-04-17 03:59:42
530,amahai,-3.3333,128.9167,87.49,66,15,6.69,ID,2023-04-17 03:59:42
531,thung song,8.1645,99.6804,96.84,100,100,4.03,TH,2023-04-17 03:59:42
532,azoyu,16.7167,-98.7333,75.04,84,0,1.99,MX,2023-04-17 03:59:43
533,sioux lookout,50.1001,-91.917,24.87,86,100,13.8,CA,2023-04-17 03:56:24
534,watertown,42.3709,-71.1828,55.89,91,100,6.91,US,2023-04-17 03:59:43
535,vila franca do campo,37.7167,-25.4333,61.21,87,86,5.1,PT,2023-04-17 03:59:43
536,camacha,33.0833,-16.3333,60.22,82,40,13.8,PT,2023-04-17 03:59:44
537,nagua,19.3832,-69.8474,73.81,89,83,7.0,DO,2023-04-17 03:59:44
538,mana,5.6592,-53.7767,77.07,89,100,7.36,GF,2023-04-17 03:59:44
539,ahvaz,31.3203,48.6693,66.15,63,0,2.3,IR,2023-04-17 03:59:44
540,ojinaga,29.5667,-104.4167,72.55,35,0,18.41,MX,2023-04-17 03:59:44
541,ajdovscina,45.886,13.9095,50.0,84,100,4.97,SI,2023-04-17 03:59:44
542,tanglad,11.2917,125.5768,85.35,70,63,6.04,PH,2023-04-17 03:59:45
543,chilca,-12.5211,-76.7372,72.93,86,100,5.35,PE,2023-04-17 03:59:45
544,markdale,44.3168,-80.6497,50.31,91,100,14.14,CA,2023-04-17 03:59:45
545,stephenville,32.2207,-98.2023,59.13,36,0,0.0,US,2023-04-17 03:59:45
546,kaspiysk,42.8816,47.6392,44.78,65,20,20.13,RU,2023-04-17 03:59:46
547,nome,64.5011,-165.4064,12.11,69,1,5.57,US,2023-04-17 03:59:46
548,surazh,53.0175,32.3918,43.9,79,100,7.02,RU,2023-04-17 03:59:46
549,mbandaka,0.0487,18.2603,70.29,98,100,2.73,CD,2023-04-17 03:59:46
550,alto araguaia,-17.3147,-53.2153,70.2,87,27,3.13,BR,2023-04-17 03:59:46
551,jamiltepec,16.2833,-97.8167,72.21,79,1,2.24,MX,2023-04-17 03:59:47
552,arlit,18.7369,7.3853,78.28,14,1,7.31,NE,2023-04-17 03:59:47
553,farah,32.5,62.5,68.67,39,100,18.61,AF,2023-04-17 03:59:47
